{"type":"FeatureCollection","features":[{"type":"Feature","properties":{"OBJECTID":1,"Name":"9:30 CLUB","ADDRESS":"815 V STREET NW","X":397949.9,"Y":138905.14,"ADDRID":285441},"geometry":{"type":"Point","coordinates":[-77.02364220976953,38.918020632567]}},{"type":"Feature","properties":{"OBJECTID":2,"Name":"AQUA","ADDRESS":"1818 NEW YORK AVENUE NE","X":402020.97,"Y":138872.09,"ADDRID":55416},"geometry":{"type":"Point","coordinates":[-76.97669835794368,38.91772297645775]}},{"type":"Feature","properties":{"OBJECTID":3,"Name":"ARCHIBALD'S","ADDRESS":"1520 K STREET NW","X":396913.31,"Y":137142.77,"ADDRID":218319},"geometry":{"type":"Point","coordinates":[-77.0355873176301,38.90214156887708]}},{"type":"Feature","properties":{"OBJECTID":4,"Name":"BACHELOR'S MILL","ADDRESS":"1104 8TH STREET SE","X":400455.72,"Y":134371.92,"ADDRID":285834},"geometry":{"type":"Point","coordinates":[-76.99475033269647,38.877186011104364]}},{"type":"Feature","properties":{"OBJECTID":5,"Name":"BAR 7","ADDRESS":"1015 1/2 7TH STREET NW","X":398125.37,"Y":137294.99,"ADDRID":278097},"geometry":{"type":"Point","coordinates":[-77.02161444977544,38.903516241810024]}},{"type":"Feature","properties":{"OBJECTID":6,"Name":"BARCODE","ADDRESS":"1101 17TH STREET NW","X":396692.75,"Y":137355.36,"ADDRID":278813},"geometry":{"type":"Point","coordinates":[-77.03813107624462,38.90405585268929]}},{"type":"Feature","properties":{"OBJECTID":7,"Name":"BLACK CAT ","ADDRESS":"1811 14TH STREET NW","X":397263.94,"Y":138523.73,"ADDRID":240469},"geometry":{"type":"Point","coordinates":[-77.03155056813314,38.914582896042035]}},{"type":"Feature","properties":{"OBJECTID":8,"Name":"BLUES ALLEY","ADDRESS":"1073 WISCONSIN AVENUE NW","X":394574.16,"Y":137427.11,"ADDRID":273839},"geometry":{"type":"Point","coordinates":[-77.0625565453874,38.90469167650346]}},{"type":"Feature","properties":{"OBJECTID":9,"Name":"BOSSA BISTRO & LOUNGE","ADDRESS":"2463 18TH STREET NW","X":396340.93,"Y":139357.23,"ADDRID":235591},"geometry":{"type":"Point","coordinates":[-77.04219782488978,38.92208797991907]}},{"type":"Feature","properties":{"OBJECTID":10,"Name":"CAFÉ CITRON","ADDRESS":"1343 CONNECTICUT AVENUE NW","X":396327.44,"Y":137842.56,"ADDRID":285509},"geometry":{"type":"Point","coordinates":[-77.04234528580223,38.908443269846614]}},{"type":"Feature","properties":{"OBJECTID":11,"Name":"CAFÉ JAPONE","ADDRESS":"2032 P STREET NW","X":395977.42,"Y":137960.81,"ADDRID":242770},"geometry":{"type":"Point","coordinates":[-77.04638155453983,38.90950697421827]}},{"type":"Feature","properties":{"OBJECTID":12,"Name":"CAMELOT SHOW BAR","ADDRESS":"1823 M STREET NW","X":396295.3,"Y":137560.75,"ADDRID":241271},"geometry":{"type":"Point","coordinates":[-77.04271432545048,38.90590449249703]}},{"type":"Feature","properties":{"OBJECTID":13,"Name":"CAPITALE","ADDRESS":"1301 K STREET NW","X":397352.63,"Y":137230.54,"ADDRID":240647},"geometry":{"type":"Point","coordinates":[-77.03052293750412,38.902933665347966]}},{"type":"Feature","properties":{"OBJECTID":14,"Name":"CAPITOL LOUNGE ","ADDRESS":"229 PENNSYLVANIA AVENUE SE","X":399787.23,"Y":135455.4,"ADDRID":278137},"geometry":{"type":"Point","coordinates":[-77.00245468806386,38.88694651223378]}},{"type":"Feature","properties":{"OBJECTID":15,"Name":"CHI CHA LOUNGE","ADDRESS":"1624 U STREET NW","X":396713.47,"Y":138766.04,"ADDRID":226300},"geometry":{"type":"Point","coordinates":[-77.03789895074136,38.91676381908738]}},{"type":"Feature","properties":{"OBJECTID":16,"Name":"CHIEF IKE'S MAMBO ROOM","ADDRESS":"1725 COLUMBIA ROAD NW","X":396521.62,"Y":139646.42,"ADDRID":235940},"geometry":{"type":"Point","coordinates":[-77.04011561586174,38.92469383011516]}},{"type":"Feature","properties":{"OBJECTID":17,"Name":"CITIES","ADDRESS":"919 19TH STREET NW","X":396259.3,"Y":137115.71,"ADDRID":308910},"geometry":{"type":"Point","coordinates":[-77.043126950689,38.9018952626039]}},{"type":"Feature","properties":{"OBJECTID":18,"Name":"COLBALT","ADDRESS":"1639 R STREET NW","X":396687.8,"Y":138326.71,"ADDRID":243123},"geometry":{"type":"Point","coordinates":[-77.03819282949682,38.91280609073667]}},{"type":"Feature","properties":{"OBJECTID":19,"Name":"CUBA LIBRE","ADDRESS":"801 9TH STREET NW","X":397951.37,"Y":136947.56,"ADDRID":285560},"geometry":{"type":"Point","coordinates":[-77.02361941811549,38.90038608000956]}},{"type":"Feature","properties":{"OBJECTID":20,"Name":"DC STAR","ADDRESS":"2135 QUEENS CHAPEL ROAD NE","X":402393.44,"Y":139115.14,"ADDRID":286671},"geometry":{"type":"Point","coordinates":[-76.972402537004,38.91991151551666]}},{"type":"Feature","properties":{"OBJECTID":21,"Name":"DC9","ADDRESS":"1940 9TH STREET NW","X":397899.19,"Y":138760.66,"ADDRID":279498},"geometry":{"type":"Point","coordinates":[-77.02422651007308,38.916718989046394]}},{"type":"Feature","properties":{"OBJECTID":22,"Name":"DIRTY BAR","ADDRESS":"1223 CONNECTICUT AVENUE NW","X":396424.45,"Y":137648.32,"ADDRID":241771},"geometry":{"type":"Point","coordinates":[-77.04122579191038,38.90669388854438]}},{"type":"Feature","properties":{"OBJECTID":23,"Name":"DIRTY MARTINI","ADDRESS":"1223 CONNECTICUT AVENUE NW","X":396424.45,"Y":137648.32,"ADDRID":241771},"geometry":{"type":"Point","coordinates":[-77.04122579191038,38.90669388854438]}},{"type":"Feature","properties":{"OBJECTID":24,"Name":"DISTRICT","ADDRESS":"2473 18TH STREET NW","X":396334.29,"Y":139384.62,"ADDRID":218139},"geometry":{"type":"Point","coordinates":[-77.04227454208247,38.92233469020507]}},{"type":"Feature","properties":{"OBJECTID":25,"Name":"ECHOSTAGE","ADDRESS":"2135 QUEENS CHAPEL ROAD NE","X":402393.44,"Y":139115.14,"ADDRID":286671},"geometry":{"type":"Point","coordinates":[-76.972402537004,38.91991151551666]}},{"type":"Feature","properties":{"OBJECTID":26,"Name":"EDEN","ADDRESS":"1716 I STREET NW","X":396510.05,"Y":137022.64,"ADDRID":279328},"geometry":{"type":"Point","coordinates":[-77.04023570629312,38.901057886235975]}},{"type":"Feature","properties":{"OBJECTID":27,"Name":"EIGHTEENTH STREET LOUNGE","ADDRESS":"1212 18TH STREET NW","X":396359.98,"Y":137595.94,"ADDRID":241288},"geometry":{"type":"Point","coordinates":[-77.04196880667232,38.90622176657904]}},{"type":"Feature","properties":{"OBJECTID":28,"Name":"EYEBAR","ADDRESS":"1716 I STREET NW","X":396510.05,"Y":137022.64,"ADDRID":279328},"geometry":{"type":"Point","coordinates":[-77.04023570629312,38.901057886235975]}},{"type":"Feature","properties":{"OBJECTID":29,"Name":"FATBACK","ADDRESS":"2001 11TH STREET NW","X":397673.99,"Y":138810.29,"ADDRID":239179},"geometry":{"type":"Point","coordinates":[-77.02682343629324,38.91716550529443]}},{"type":"Feature","properties":{"OBJECTID":30,"Name":"FUR","ADDRESS":"33 PATTERSON STREET NE","X":399304,"Y":137598.67,"ADDRID":37072},"geometry":{"type":"Point","coordinates":[-77.00802661122802,38.9062536222072]}},{"type":"Feature","properties":{"OBJECTID":31,"Name":"GRAND CENTRAL","ADDRESS":"2447 18TH STREET NW","X":396353.02,"Y":139320.5,"ADDRID":218136},"geometry":{"type":"Point","coordinates":[-77.0420582107034,38.92175715446692]}},{"type":"Feature","properties":{"OBJECTID":32,"Name":"HABANA VILLAGE","ADDRESS":"1834 COLUMBIA ROAD NW","X":396258.42,"Y":139318.55,"ADDRID":235389},"geometry":{"type":"Point","coordinates":[-77.04314909994169,38.92173919050721]}},{"type":"Feature","properties":{"OBJECTID":33,"Name":"HEAVEN & HELL","ADDRESS":"2327 18TH STREET NW","X":396392.63,"Y":139173.94,"ADDRID":235600},"geometry":{"type":"Point","coordinates":[-77.04160066940376,38.92043705790634]}},{"type":"Feature","properties":{"OBJECTID":34,"Name":"HEIST","ADDRESS":"1802 JEFFERSON PLACE NW","X":396339.56,"Y":137612.62,"ADDRID":303475},"geometry":{"type":"Point","coordinates":[-77.04220432183753,38.90637194103188]}},{"type":"Feature","properties":{"OBJECTID":35,"Name":"HR-57","ADDRESS":"1007 H STREET NE","X":400670.52,"Y":136902.49,"ADDRID":149707},"geometry":{"type":"Point","coordinates":[-76.9922724000301,38.89998220586937]}},{"type":"Feature","properties":{"OBJECTID":36,"Name":"IBIZA","ADDRESS":"1222 1ST STREET NE","X":399450.76,"Y":137651.85,"ADDRID":70970},"geometry":{"type":"Point","coordinates":[-77.00633462753508,38.9067327902676]}},{"type":"Feature","properties":{"OBJECTID":37,"Name":"INDULJ","ADDRESS":"1208 U STREET NW","X":397528.61,"Y":138770.97,"ADDRID":218050},"geometry":{"type":"Point","coordinates":[-77.02849966705922,38.91681090081304]}},{"type":"Feature","properties":{"OBJECTID":38,"Name":"JOSEPHINE","ADDRESS":"1008 VERMONT AVENUE NW","X":397064.91,"Y":137244.11,"ADDRID":307130},"geometry":{"type":"Point","coordinates":[-77.0338400240014,38.90305499496126]}},{"type":"Feature","properties":{"OBJECTID":39,"Name":"KABIN","ADDRESS":"1337 CONNECTICUT AVENUE NW","X":396337.4,"Y":137825.96,"ADDRID":279096},"geometry":{"type":"Point","coordinates":[-77.04223036285636,38.908293772872256]}},{"type":"Feature","properties":{"OBJECTID":40,"Name":"L2 LOUNGE","ADDRESS":"3315 CADY'S ALLEY NW","X":394217.26,"Y":137442.45,"ADDRID":302277},"geometry":{"type":"Point","coordinates":[-77.06667135693668,38.90482758889255]}},{"type":"Feature","properties":{"OBJECTID":41,"Name":"LIMA","ADDRESS":"1401 K STREET NW","X":397197.07,"Y":137230.39,"ADDRID":240265},"geometry":{"type":"Point","coordinates":[-77.03231633657441,38.90293183175051]}},{"type":"Feature","properties":{"OBJECTID":42,"Name":"LITTLE MISS WHISKEY'S GOLDEN DOLLAR","ADDRESS":"1104 H STREET NE","X":400762.09,"Y":136948.32,"ADDRID":74492},"geometry":{"type":"Point","coordinates":[-76.99121671264486,38.900394984427365]}},{"type":"Feature","properties":{"OBJECTID":43,"Name":"LIV NIGHTCLUB","ADDRESS":"2001 11TH STREET NW","X":397673.99,"Y":138810.29,"ADDRID":239179},"geometry":{"type":"Point","coordinates":[-77.02682343629324,38.91716550529443]}},{"type":"Feature","properties":{"OBJECTID":44,"Name":"LOST SOCIETY","ADDRESS":"2001 14TH STREET NW","X":397248.69,"Y":138809.3,"ADDRID":240357},"geometry":{"type":"Point","coordinates":[-77.03172755353457,38.91715535830999]}},{"type":"Feature","properties":{"OBJECTID":45,"Name":"LOTUS LOUNGE","ADDRESS":"1420 K STREET NW","X":397153.92,"Y":137143.57,"ADDRID":240271},"geometry":{"type":"Point","coordinates":[-77.0328134388087,38.90214958764481]}},{"type":"Feature","properties":{"OBJECTID":46,"Name":"LOVE","ADDRESS":"1350 OKIE STREET NE","X":401214.08,"Y":138515.32,"ADDRID":66106},"geometry":{"type":"Point","coordinates":[-76.9860032855632,38.91451055797632]}},{"type":"Feature","properties":{"OBJECTID":47,"Name":"LUX LOUNGE","ADDRESS":"649 NEW YORK AVENUE NW","X":398147.67,"Y":137281.83,"ADDRID":218713},"geometry":{"type":"Point","coordinates":[-77.02135732285892,38.90339773915111]}},{"type":"Feature","properties":{"OBJECTID":48,"Name":"M.I.A","ADDRESS":"1214 18TH STREET NW","X":396359.74,"Y":137603.14,"ADDRID":309094},"geometry":{"type":"Point","coordinates":[-77.04197161184753,38.906286625699224]}},{"type":"Feature","properties":{"OBJECTID":49,"Name":"MADHATTER","ADDRESS":"1319 CONNECTICUT AVENUE NW","X":396359.03,"Y":137783.56,"ADDRID":243295},"geometry":{"type":"Point","coordinates":[-77.0419807542073,38.907911908871135]}},{"type":"Feature","properties":{"OBJECTID":50,"Name":"MADAM'S ORGAN","ADDRESS":"2461 18TH STREET NW","X":396342.15,"Y":139351.28,"ADDRID":235590},"geometry":{"type":"Point","coordinates":[-77.04218372442939,38.92203438547636]}},{"type":"Feature","properties":{"OBJECTID":51,"Name":"MCCXXIII-SPANK","ADDRESS":"1223 CONNECTICUT AVENUE NW","X":396424.45,"Y":137648.32,"ADDRID":241771},"geometry":{"type":"Point","coordinates":[-77.04122579191038,38.90669388854438]}},{"type":"Feature","properties":{"OBJECTID":52,"Name":"MIDTOWN PARTYPLEX","ADDRESS":"1219 CONNECTICUT AVENUE NW","X":396428.34,"Y":137631.49,"ADDRID":278950},"geometry":{"type":"Point","coordinates":[-77.0411808554911,38.906542293854116]}},{"type":"Feature","properties":{"OBJECTID":53,"Name":"MUSE LOUNGE","ADDRESS":"717 6TH STREET NW","X":398301.6,"Y":136789.08,"ADDRID":238948},"geometry":{"type":"Point","coordinates":[-77.01958148462633,38.89895918162534]}},{"type":"Feature","properties":{"OBJECTID":54,"Name":"ONE LOUNGE","ADDRESS":"1606 20TH STREET NW","X":396085.48,"Y":138183.8,"ADDRID":279247},"geometry":{"type":"Point","coordinates":[-77.04513692315435,38.91151623238072]}},{"type":"Feature","properties":{"OBJECTID":55,"Name":"OPERA ULTRALOUNGE","ADDRESS":"1400 I STREET NW","X":397199.87,"Y":137019.46,"ADDRID":217995},"geometry":{"type":"Point","coordinates":[-77.03228319628889,38.901031708033734]}},{"type":"Feature","properties":{"OBJECTID":56,"Name":"OZIO","ADDRESS":"1813 M STREET NW","X":396325.86,"Y":137563.43,"ADDRID":243139},"geometry":{"type":"Point","coordinates":[-77.04236200901981,38.905928763161214]}},{"type":"Feature","properties":{"OBJECTID":57,"Name":"PANORAMA","ADDRESS":"1424 K STREET NW","X":397136.34,"Y":137148.94,"ADDRID":240268},"geometry":{"type":"Point","coordinates":[-77.03301613296543,38.902197905413566]}},{"type":"Feature","properties":{"OBJECTID":58,"Name":"PATTY BOOM BOOM","ADDRESS":"1359 U STREET NW","X":397269.74,"Y":138809.04,"ADDRID":240356},"geometry":{"type":"Point","coordinates":[-77.03148482563277,38.917153081800734]}},{"type":"Feature","properties":{"OBJECTID":59,"Name":"Penthouse Pool Club","ADDRESS":"1612 U STREET NW","X":396736.1,"Y":138763.71,"ADDRID":241860},"geometry":{"type":"Point","coordinates":[-77.03763799530638,38.91674291401987]}},{"type":"Feature","properties":{"OBJECTID":60,"Name":"PHASE 1","ADDRESS":"525 8TH STREET SE","X":400408.69,"Y":134903.17,"ADDRID":11125},"geometry":{"type":"Point","coordinates":[-76.99529201476604,38.88197174279783]}},{"type":"Feature","properties":{"OBJECTID":61,"Name":"POLICY","ADDRESS":"1904 14TH STREET NW","X":397208.43,"Y":138656.29,"ADDRID":218552},"geometry":{"type":"Point","coordinates":[-77.03219116808232,38.915776866330134]}},{"type":"Feature","properties":{"OBJECTID":62,"Name":"POV","ADDRESS":"515 15TH STREET NW","X":397103.43,"Y":136567.81,"ADDRID":279820},"geometry":{"type":"Point","coordinates":[-77.03339308669099,38.89696276911077]}},{"type":"Feature","properties":{"OBJECTID":63,"Name":"PURE LOUNGE ","ADDRESS":"1326 U STREET NW","X":397334.26,"Y":138769.63,"ADDRID":279068},"geometry":{"type":"Point","coordinates":[-77.0307406945881,38.916798261539775]}},{"type":"Feature","properties":{"OBJECTID":64,"Name":"RECESS LOUNGE","ADDRESS":"727 15TH STREET NW","X":397114.74,"Y":136864.86,"ADDRID":218739},"geometry":{"type":"Point","coordinates":[-77.03326395619835,38.89963874036963]}},{"type":"Feature","properties":{"OBJECTID":65,"Name":"RED LOUNGE","ADDRESS":"2013 14TH STREET NW","X":397258.37,"Y":138845.27,"ADDRID":240339},"geometry":{"type":"Point","coordinates":[-77.03161607742531,38.91747941824594]}},{"type":"Feature","properties":{"OBJECTID":66,"Name":"ROC BAR","ADDRESS":"1428 L STREET NW","X":397037.25,"Y":137302.52,"ADDRID":218273},"geometry":{"type":"Point","coordinates":[-77.03415915950465,38.90358108012869]}},{"type":"Feature","properties":{"OBJECTID":67,"Name":"ROCK & ROLL HOTEL","ADDRESS":"1353 H STREET NE","X":401163.56,"Y":136891.68,"ADDRID":286092},"geometry":{"type":"Point","coordinates":[-76.98658855846459,38.8998843113533]}},{"type":"Feature","properties":{"OBJECTID":68,"Name":"ROSEBAR","ADDRESS":"1215 CONNECTICUT AVENUE NW","X":396433.43,"Y":137617.28,"ADDRID":241766},"geometry":{"type":"Point","coordinates":[-77.04112209779827,38.906414305887374]}},{"type":"Feature","properties":{"OBJECTID":69,"Name":"ROYAL PALACE","ADDRESS":"1805 CONNECTICUT AVENUE NW","X":396027.19,"Y":138505.86,"ADDRID":242756},"geometry":{"type":"Point","coordinates":[-77.04581087361426,38.91441719614408]}},{"type":"Feature","properties":{"OBJECTID":70,"Name":"RUMBA CAFÉ ","ADDRESS":"2443 18TH STREET NW","X":396354.68,"Y":139309.97,"ADDRID":235621},"geometry":{"type":"Point","coordinates":[-77.04203901214132,38.921662303706995]}},{"type":"Feature","properties":{"OBJECTID":71,"Name":"RUMORS","ADDRESS":"1900 M STREET NW","X":396194.9,"Y":137501.31,"ADDRID":243290},"geometry":{"type":"Point","coordinates":[-77.04387152256815,38.905368607220645]}},{"type":"Feature","properties":{"OBJECTID":72,"Name":"SHADOWROOM","ADDRESS":"2131 K STREET NW","X":395865.47,"Y":137227.39,"ADDRID":242483},"geometry":{"type":"Point","coordinates":[-77.04766789212516,38.90289955135637]}},{"type":"Feature","properties":{"OBJECTID":73,"Name":"SMOKE & BARREL","ADDRESS":"2471 18TH STREET NW","X":396336.03,"Y":139379.24,"ADDRID":235595},"geometry":{"type":"Point","coordinates":[-77.04225444802441,38.92228623268646]}},{"type":"Feature","properties":{"OBJECTID":74,"Name":"SOLLY'S U ST TAVERN","ADDRESS":"1942 11TH STREET NW","X":397633.27,"Y":138769.89,"ADDRID":279499},"geometry":{"type":"Point","coordinates":[-77.02729283807932,38.916801459943194]}},{"type":"Feature","properties":{"OBJECTID":75,"Name":"SOUSSI HOOKAH BAR & LOUNGE","ADDRESS":"2228 18TH STREET NW","X":396368.3,"Y":139074.26,"ADDRID":235469},"geometry":{"type":"Point","coordinates":[-77.04188070337533,38.91953900769626]}},{"type":"Feature","properties":{"OBJECTID":76,"Name":"SUTRA LOUNGE","ADDRESS":"2406 18TH STREET NW","X":396328.13,"Y":139224.34,"ADDRID":235394},"geometry":{"type":"Point","coordinates":[-77.04234472060311,38.92089081034442]}},{"type":"Feature","properties":{"OBJECTID":77,"Name":"TATTOO BAR","ADDRESS":"1413 K STREET NW","X":397164.6,"Y":137227.69,"ADDRID":279142},"geometry":{"type":"Point","coordinates":[-77.03269066128512,38.9029074050396]}},{"type":"Feature","properties":{"OBJECTID":78,"Name":"THE HAMILTON","ADDRESS":"600 14TH STREET NW","X":397200.36,"Y":136648.98,"ADDRID":300970},"geometry":{"type":"Point","coordinates":[-77.03227603722735,38.897694292102074]}},{"type":"Feature","properties":{"OBJECTID":79,"Name":"THE HUXLEY","ADDRESS":"1730 M STREET NW","X":396539.28,"Y":137499.67,"ADDRID":241789},"geometry":{"type":"Point","coordinates":[-77.03990113602053,38.90535525703669]}},{"type":"Feature","properties":{"OBJECTID":80,"Name":"THE JAM CELLAR","ADDRESS":"2437 15TH STREET NW","X":396971.82,"Y":139401.47,"ADDRID":234197},"geometry":{"type":"Point","coordinates":[-77.03492274482913,38.922488908861574]}},{"type":"Feature","properties":{"OBJECTID":81,"Name":"THE MANSION","ADDRESS":"1808 ADAMS MILL ROAD NW","X":396263.54,"Y":139458.56,"ADDRID":300753},"geometry":{"type":"Point","coordinates":[-77.04309081974898,38.92300046752855]}},{"type":"Feature","properties":{"OBJECTID":82,"Name":"THE WONDERLAND BALLROOM","ADDRESS":"1101 KENYON STREET NW","X":397573.56,"Y":140228.27,"ADDRID":231161},"geometry":{"type":"Point","coordinates":[-77.02798650458047,38.92993885284298]}},{"type":"Feature","properties":{"OBJECTID":83,"Name":"THE PARK AT FOURTEENTH","ADDRESS":"920 14TH STREET NW","X":397203.44,"Y":137117.69,"ADDRID":279987},"geometry":{"type":"Point","coordinates":[-77.03224244003151,38.90191661034261]}},{"type":"Feature","properties":{"OBJECTID":84,"Name":"THE VELVET LOUNGE","ADDRESS":"915 U STREET NW","X":397860.66,"Y":138814.9,"ADDRID":239442},"geometry":{"type":"Point","coordinates":[-77.02467096458575,38.91720750801999]}},{"type":"Feature","properties":{"OBJECTID":85,"Name":"TIMEHRI","ADDRESS":"2439 18TH STREET NW","X":396357.78,"Y":139294.24,"ADDRID":235584},"geometry":{"type":"Point","coordinates":[-77.04200318041836,38.92152061562784]}},{"type":"Feature","properties":{"OBJECTID":86,"Name":"TOKA CAFÉ ","ADDRESS":"1140 19TH STREET NW","X":396193.86,"Y":137456.2,"ADDRID":241076},"geometry":{"type":"Point","coordinates":[-77.04388326277483,38.90496223600917]}},{"type":"Feature","properties":{"OBJECTID":87,"Name":"TOWN DANCEBOTIQUE","ADDRESS":"2009 8TH STREET NW","X":398032.06,"Y":138804.48,"ADDRID":242769},"geometry":{"type":"Point","coordinates":[-77.02269452536697,38.9171140417999]}},{"type":"Feature","properties":{"OBJECTID":88,"Name":"TROPICALIA","ADDRESS":"2001 14TH STREET NW","X":397248.69,"Y":138809.3,"ADDRID":240357},"geometry":{"type":"Point","coordinates":[-77.03172755353457,38.91715535830999]}},{"type":"Feature","properties":{"OBJECTID":89,"Name":"TURNTABLES","ADDRESS":"5802 GEORGIA AVENUE NW","X":397539.03,"Y":143596.07,"ADDRID":253164},"geometry":{"type":"Point","coordinates":[-77.02839682329231,38.960276856257224]}},{"type":"Feature","properties":{"OBJECTID":90,"Name":"TUSCANA LOUNGE","ADDRESS":"1350 I STREET NW","X":397285.16,"Y":137019.84,"ADDRID":240651},"geometry":{"type":"Point","coordinates":[-77.03129994386212,38.90103539879858]}},{"type":"Feature","properties":{"OBJECTID":91,"Name":"U STREET MUSIC HALL","ADDRESS":"1115 U STREET NW","X":397591.88,"Y":138810.97,"ADDRID":309088},"geometry":{"type":"Point","coordinates":[-77.02777024657425,38.917171409767946]}},{"type":"Feature","properties":{"OBJECTID":92,"Name":"ULTRABAR ","ADDRESS":"911 F STREET NW","X":397864.27,"Y":136644.3,"ADDRID":242797},"geometry":{"type":"Point","coordinates":[-77.02462258626677,38.897653996945]}},{"type":"Feature","properties":{"OBJECTID":93,"Name":"VEGAS LOUNGE","ADDRESS":"1415 P STREET NW","X":397170.97,"Y":138000.2,"ADDRID":279146},"geometry":{"type":"Point","coordinates":[-77.03262040630699,38.90986646552406]}},{"type":"Feature","properties":{"OBJECTID":94,"Name":"VENUS","ADDRESS":"15 K STREET NE","X":399321.23,"Y":137152.4,"ADDRID":62711},"geometry":{"type":"Point","coordinates":[-77.00782752172542,38.90223347782334]}},{"type":"Feature","properties":{"OBJECTID":95,"Name":"ZIEGFELD'S SECRETS","ADDRESS":"1824 HALF STREET SW","X":399105.65,"Y":133294.7,"ADDRID":277759},"geometry":{"type":"Point","coordinates":[-77.01030782509213,38.86748164104382]}},{"type":"Feature","properties":{"OBJECTID":96,"Name":"Zeba Bar","ADDRESS":"3423 14TH STREET NW","X":397184.94,"Y":140483.78,"ADDRID":230874},"geometry":{"type":"Point","coordinates":[-77.03246952076107,38.93223940641149]}}]}